{
"type": "FeatureCollection",
"name": "cu",
"crs": { "type": "name", "properties": { "name": "urn:ogc:def:crs:OGC:1.3:CRS84" } },
"features": [
{ "type": "Feature", "properties": { "Name": "AG-Dmb", "Locality": "Dambovicioara", "County": "Arges", "Data PIF": "18.08.2023", "Parameters": "Total UV irradiance" }, "geometry": { "type": "Point", "coordinates": [ 25.1728446254514, 45.495449237824701 ] } },
{ "type": "Feature", "properties": { "Name": "BH-Pad", "Locality": "Bihor", "County": "Padiș", "Data PIF": "45210", "Parameters": "Total UV irradiance" }, "geometry": { "type": "Point", "coordinates": [ 22.702133, 46.602107 ] } },
{ "type": "Feature", "properties": { "Name": "BR-Bra", "Locality": "Braila", "County": "Braila", "Data PIF": "04.08.2023", "Parameters": "Total UV irradiance" }, "geometry": { "type": "Point", "coordinates": [ 27.957608, 45.252871 ] } },
{ "type": "Feature", "properties": { "Name": "CL-Scm", "Locality": "Stefan Cel Mare", "County": "Calarasi", "Data PIF": "10.08.2023", "Parameters": "Total UV irradiance" }, "geometry": { "type": "Point", "coordinates": [ 27.59943, 44.427252 ] } },
{ "type": "Feature", "properties": { "Name": "IF-Cor", "Locality": "Padurea Cornetu", "County": "Ilfov", "Data PIF": "18.07.2023", "Parameters": "Total UV irradiance" }, "geometry": { "type": "Point", "coordinates": [ 25.9309, 44.307021 ] } },
{ "type": "Feature", "properties": { "Name": "IF-Ste", "Locality": "Ilfov", "County": "Stefanestii de Jos", "Data PIF": "05.09.2023", "Parameters": "Total UV irradiance" }, "geometry": { "type": "Point", "coordinates": [ 26.38612, 44.55192 ] } },
{ "type": "Feature", "properties": { "Name": "MH-Ors", "Locality": "Orsova", "County": "Mehedinti", "Data PIF": "24.08.2023", "Parameters": "Total UV irradiance" }, "geometry": { "type": "Point", "coordinates": [ 22.4050133204817, 44.708624163254001 ] } },
{ "type": "Feature", "properties": { "Name": "TL-Mal", "Locality": "Malcoci", "County": "Tulcea", "Data PIF": "09.08.2023", "Parameters": "Total UV irradiance" }, "geometry": { "type": "Point", "coordinates": [ 28.856291, 45.102689 ] } },
{ "type": "Feature", "properties": { "Name": "TL-Sfg", "Locality": "Tulcea", "County": "Sfântu Gheorghe", "Data PIF": "45217", "Parameters": "Total UV irradiance" }, "geometry": { "type": "Point", "coordinates": [ 29.607773, 44.891007 ] } },
{ "type": "Feature", "properties": { "Name": "TR-Drv", "Locality": "Draganesti-Vlasca", "County": "Teleorman", "Data PIF": "20.07.2023", "Parameters": "Total UV irradiance" }, "geometry": { "type": "Point", "coordinates": [ 25.550337274034302, 44.079874901568999 ] } }
]
}
