{
"type": "FeatureCollection",
"name": "ec",
"crs": { "type": "name", "properties": { "name": "urn:ogc:def:crs:OGC:1.3:CRS84" } },
"features": [
{ "type": "Feature", "properties": { "Name": "1.ICOS_Delta_Dunarii", "locality": "Enisala", "county": "Tulcea", "z": 0.78171855211257901, "code_12": 411.0, "descriptio": "Wetland", "Contact": "Marian Tudor/Burada", "Telefon": "0751179153/0743344986", "Detinator": "INCDD Tulcea", "Nume LTSER": "Delta Dunarii", "prioritare": "da", "Observatii": null }, "geometry": { "type": "Point", "coordinates": [ 28.829715550500001, 44.890607843700003 ] } },
{ "type": "Feature", "properties": { "Name": "2.ICOS_Insula_Mare", "locality": "Băila", "county": "Brăila", "z": 3.1199083328246999, "code_12": 211.0, "descriptio": "Teren agricol", "Contact": "Trifan Daniela", "Telefon": "726710072", "Detinator": "SCDA Braila", "Nume LTSER": "LTSER Braila", "prioritare": "da", "Observatii": null }, "geometry": { "type": "Point", "coordinates": [ 27.981598981200001, 45.232446005100002 ] } },
{ "type": "Feature", "properties": { "Name": "3.ICOS_Insula_Mica (h5)", "locality": "Băila", "county": "Brăila", "z": 3.92000007629394, "code_12": 411.0, "descriptio": "Wetland", "Contact": "Mihai Adamescu", "Telefon": "722277479", "Detinator": "Parcul Insula Mica", "Nume LTSER": "LTSER Braila", "prioritare": "da", "Observatii": null }, "geometry": { "type": "Point", "coordinates": [ 27.985281408199999, 45.189728306 ] } },
{ "type": "Feature", "properties": { "Name": "4. ICOS_Polizesti", "locality": "Polizești", "county": "Brăila", "z": 7.1014628410339302, "code_12": 211.0, "descriptio": "Teren agricol (orezarie)", "Contact": "Trifan Daniela", "Telefon": "726710072", "Detinator": "SCDA Braila", "Nume LTSER": "LTSER Braila", "prioritare": "nu", "Observatii": "tot în cultură agricolă ca în IMB" }, "geometry": { "type": "Point", "coordinates": [ 27.808568682899999, 44.848469826500001 ] } }
]
}
