{
"type": "FeatureCollection",
"name": "ws",
"crs": { "type": "name", "properties": { "name": "urn:ogc:def:crs:OGC:1.3:CRS84" } },
"features": [
{ "type": "Feature", "properties": { "Name": "BR-Mar", "Locality": "Mărașu", "County": "Braila", "Data PIF": "02.08.2023", "Parameters": "air temp, precipitation, air pressure, soil temperature, snow depth,  irradiance, wind speed and direction, visibility, relative humidity" }, "geometry": { "type": "Point", "coordinates": [ 27.982978, 45.231796 ] } },
{ "type": "Feature", "properties": { "Name": "TL-Sar", "Locality": "Sarichioi", "County": "Tulcea", "Data PIF": "03.08.2023", "Parameters": "air temp, precipitation, air pressure, soil temperature, snow depth,  irradiance, wind speed and direction, visibility, relative humidity" }, "geometry": { "type": "Point", "coordinates": [ 28.830232, 44.891246 ] } },
{ "type": "Feature", "properties": { "Name": "BR-Bra", "Locality": "Braila", "County": "Braila", "Data PIF": "04.08.2023", "Parameters": "air temp, precipitation, air pressure, soil temperature, snow depth,  irradiance, wind speed and direction, visibility, relative humidity" }, "geometry": { "type": "Point", "coordinates": [ 27.957608, 45.252871 ] } },
{ "type": "Feature", "properties": { "Name": "TL-Mal", "Locality": "Malcoci", "County": "Tulcea", "Data PIF": "09.08.2023", "Parameters": "air temp, precipitation, air pressure, soil temperature, snow depth,  irradiance, wind speed and direction, visibility, relative humidity" }, "geometry": { "type": "Point", "coordinates": [ 28.856291, 45.102689 ] } },
{ "type": "Feature", "properties": { "Name": "CL-Scm", "Locality": "Stefan Cel Mare", "County": "Calarasi", "Data PIF": "10.08.2023", "Parameters": "air temp, precipitation, air pressure, soil temperature, snow depth,  irradiance, wind speed and direction, visibility, relative humidity" }, "geometry": { "type": "Point", "coordinates": [ 27.59943, 44.427252 ] } },
{ "type": "Feature", "properties": { "Name": "AG-Mih", "Locality": "Mihaesti", "County": "Arges", "Data PIF": "11.08.2023", "Parameters": "air temp, precipitation, air pressure, soil temperature, snow depth,  irradiance, wind speed and direction, visibility, relative humidity" }, "geometry": { "type": "Point", "coordinates": [ 25.012329272284401, 45.103584362600699 ] } },
{ "type": "Feature", "properties": { "Name": "PH-Ber", "Locality": "Berceni", "County": "Prahova", "Data PIF": "16.08.2023", "Parameters": "air temp, precipitation, air pressure, soil temperature, snow depth,  irradiance, wind speed and direction, visibility, relative humidity" }, "geometry": { "type": "Point", "coordinates": [ 26.113957130933301, 44.903617996301897 ] } },
{ "type": "Feature", "properties": { "Name": "IF-Cor", "Locality": "Padurea Cornetu", "County": "Ilfov", "Data PIF": "18.07.2023", "Parameters": "air temp, precipitation, air pressure, soil temperature, snow depth,  irradiance, wind speed and direction, visibility, relative humidity" }, "geometry": { "type": "Point", "coordinates": [ 25.9309, 44.307021 ] } },
{ "type": "Feature", "properties": { "Name": "AG-Dmb", "Locality": "Dambovicioara", "County": "Arges", "Data PIF": "18.08.2023", "Parameters": "air temp, precipitation, air pressure, soil temperature, snow depth,  irradiance, wind speed and direction, visibility, relative humidity" }, "geometry": { "type": "Point", "coordinates": [ 25.1728446254514, 45.495449237824701 ] } },
{ "type": "Feature", "properties": { "Name": "TR-Drv", "Locality": "Draganesti-Vlasca", "County": "Teleorman", "Data PIF": "20.07.2023", "Parameters": "air temp, precipitation, air pressure, soil temperature, snow depth,  irradiance, wind speed and direction, visibility, relative humidity" }, "geometry": { "type": "Point", "coordinates": [ 25.550337274034302, 44.079874901568999 ] } },
{ "type": "Feature", "properties": { "Name": "MH-Ors", "Locality": "Orsova", "County": "Mehedinti", "Data PIF": "24.08.2023", "Parameters": "air temp, precipitation, air pressure, soil temperature, snow depth,  irradiance, wind speed and direction, visibility, relative humidity" }, "geometry": { "type": "Point", "coordinates": [ 22.4050133204817, 44.708624163254001 ] } },
{ "type": "Feature", "properties": { "Name": "DB-Mor", "Locality": "Moroeni", "County": "Dambovita", "Data PIF": "20.09.2023", "Parameters": "air temp, precipitation, air pressure, soil temperature, snow depth,  irradiance, wind speed and direction, visibility, relative humidity" }, "geometry": { "type": "Point", "coordinates": [ 25.427925, 45.285061 ] } },
{ "type": "Feature", "properties": { "Name": "GR-Bul", "Locality": "Bulbucata", "County": "Giurgiu", "Data PIF": "45169", "Parameters": "air temp, precipitation, air pressure, soil temperature, snow depth,  irradiance, wind speed and direction, visibility, relative humidity" }, "geometry": { "type": "Point", "coordinates": [ 25.834488699581801, 44.293946151774001 ] } },
{ "type": "Feature", "properties": { "Name": "IF-Ste", "Locality": "Stefanestii de Jos", "County": "Ilfov", "Data PIF": "05.09.2023", "Parameters": "air temp, precipitation, air pressure, soil temperature, snow depth,  irradiance, wind speed and direction, visibility, relative humidity" }, "geometry": { "type": "Point", "coordinates": [ 26.38612, 44.55192 ] } },
{ "type": "Feature", "properties": { "Name": "HD-Uri", "Locality": "Uricani", "County": "Hunedoara", "Data PIF": "26.09.2023", "Parameters": "air temp, precipitation, air pressure, soil temperature, snow depth,  irradiance, wind speed and direction, visibility, relative humidity" }, "geometry": { "type": "Point", "coordinates": [ 22.907034060641301, 45.321289040787299 ] } },
{ "type": "Feature", "properties": { "Name": "HD-San", "Locality": "Sanpetru", "County": "Hunedoara", "Data PIF": "28.09.2023", "Parameters": "air temp, precipitation, air pressure, soil temperature, snow depth,  irradiance, wind speed and direction, visibility, relative humidity" }, "geometry": { "type": "Point", "coordinates": [ 22.9134621514287, 45.5551278882727 ] } },
{ "type": "Feature", "properties": { "Name": "BH-Pad", "Locality": "Padiș", "County": "Bihor", "Data PIF": "45210", "Parameters": "air temp, precipitation, air pressure, soil temperature, snow depth,  irradiance, wind speed and direction, visibility, relative humidity" }, "geometry": { "type": "Point", "coordinates": [ 22.702133, 46.602107 ] } },
{ "type": "Feature", "properties": { "Name": "TL-Sfg", "Locality": "Sfântu Gheorghe", "County": "Tulcea", "Data PIF": "45217", "Parameters": "air temp, precipitation, air pressure, soil temperature, snow depth,  irradiance, wind speed and direction, visibility, relative humidity" }, "geometry": { "type": "Point", "coordinates": [ 29.607773, 44.891007 ] } },
{ "type": "Feature", "properties": { "Name": "BV-Brv", "Locality": "Brașov", "County": "Brașov", "Data PIF": "45356", "Parameters": "air temp, precipitation, air pressure, soil temperature, snow depth,  irradiance, wind speed and direction, visibility, relative humidity" }, "geometry": { "type": "Point", "coordinates": [ 25.544677, 45.669305 ] } },
{ "type": "Feature", "properties": { "Name": "GR-Com", "Locality": "Giurgiu", "County": "Comana", "Data PIF": "26.123379", "Parameters": "air temp, precipitation, air pressure, soil temperature, snow depth,  irradiance, wind speed and direction, visibility, relative humidity" }, "geometry": { "type": "Point", "coordinates": [ 26.123379, 44.16742 ] } }
]
}
