{
"type": "FeatureCollection",
"name": "ws",
"crs": { "type": "name", "properties": { "name": "urn:ogc:def:crs:OGC:1.3:CRS84" } },
"features": [
{ "type": "Feature", "properties": { "Name": "Delta Dunarii", "z": 0.78171855211257901, "code_12": 411.0, "descriptio": "Wetland", "Contact": "Marian Tudor/Burada", "Telefon": "0751179153/0743344986", "Detinator": "INCDD Tulcea", "Nume LTSER": "Delta Dunarii", "prioritare": "da", "Observatii": null }, "geometry": { "type": "Point", "coordinates": [ 28.829715550500001, 44.890607843700003 ] } },
{ "type": "Feature", "properties": { "Name": "Insula Mare", "z": 3.1199083328246999, "code_12": 211.0, "descriptio": "Teren agricol", "Contact": "Trifan Daniela", "Telefon": "726710072", "Detinator": "SCDA Braila", "Nume LTSER": "LTSER Braila", "prioritare": "da", "Observatii": null }, "geometry": { "type": "Point", "coordinates": [ 27.981598981200001, 45.232446005100002 ] } },
{ "type": "Feature", "properties": { "Name": "Insula Mica", "z": 3.92000007629394, "code_12": 411.0, "descriptio": "Wetland", "Contact": "Mihai Adamescu", "Telefon": "722277479", "Detinator": "Parcul Insula Mica", "Nume LTSER": "LTSER Braila", "prioritare": "da", "Observatii": null }, "geometry": { "type": "Point", "coordinates": [ 27.985281408199999, 45.189728306 ] } },
{ "type": "Feature", "properties": { "Name": "Polizesti", "z": 7.1014628410339302, "code_12": 211.0, "descriptio": "Teren agricol (orezarie)", "Contact": "Trifan Daniela", "Telefon": "726710072", "Detinator": "SCDA Braila", "Nume LTSER": "LTSER Braila", "prioritare": "nu", "Observatii": "tot în cultură agricolă ca în IMB" }, "geometry": { "type": "Point", "coordinates": [ 27.808568682899999, 44.848469826500001 ] } },
{ "type": "Feature", "properties": { "Name": "Stancuta", "z": 6.7099800109863201, "code_12": 311.0, "descriptio": "Padure", "Contact": "Mihai Adamescu", "Telefon": "722277479", "Detinator": "Primaria Stancuta", "Nume LTSER": "LTSER Braila", "prioritare": "da", "Observatii": null }, "geometry": { "type": "Point", "coordinates": [ 27.893180131, 44.933804574100002 ] } },
{ "type": "Feature", "properties": { "Name": "Statiunea Brăila", "z": 15.4016065597534, "code_12": 112.0, "descriptio": "Urban", "Contact": "Mihai Adamescu", "Telefon": "722277479", "Detinator": "UB", "Nume LTSER": "LTSER Braila", "prioritare": "nu", "Observatii": "foarte aproape de stațai ANM Brăila, dar amplasată în oraș (avantaj)" }, "geometry": { "type": "Point", "coordinates": [ 27.957713870900001, 45.252884490200003 ] } },
{ "type": "Feature", "properties": { "Name": "Baza de cercetare Mila 26", "z": 3.4165263175964302, "code_12": 411.0, "descriptio": "Wetland", "Contact": "Marian Tudor/Burada", "Telefon": "0751179153/0743344986", "Detinator": "INCDD Tulcea", "Nume LTSER": "Delta Dunarii", "prioritare": "nu", "Observatii": "foarte aproape de stația ANM Gorgova" }, "geometry": { "type": "Point", "coordinates": [ 29.0653220592, 45.176291866 ] } },
{ "type": "Feature", "properties": { "Name": "Tulcea SIloz", "z": 113.98737335205, "code_12": 121.0, "descriptio": "Urban", "Contact": "Marian Tudor/Burada", "Telefon": "0751179153/0743344986", "Detinator": "INCDD Tulcea", "Nume LTSER": "Delta Dunarii", "prioritare": "da", "Observatii": null }, "geometry": { "type": "Point", "coordinates": [ 28.853975313, 45.105452733900002 ] } },
{ "type": "Feature", "properties": { "Name": "Enisala", "z": 0.604206502437592, "code_12": 411.0, "descriptio": "Wetland", "Contact": "Marian Tudor/Burada", "Telefon": "0751179153/0743344986", "Detinator": "INCDD Tulcea", "Nume LTSER": "Delta Dunarii", "prioritare": "da", "Observatii": null }, "geometry": { "type": "Point", "coordinates": [ 28.830018239099999, 44.890349601300002 ] } },
{ "type": "Feature", "properties": { "Name": "Statiunea Sfantu Gheorghe", "z": 0.069301605224609, "code_12": 112.0, "descriptio": "Urban", "Contact": "Florin Tatui", "Telefon": null, "Detinator": "UB", "Nume LTSER": "Delta Dunarii", "prioritare": "da", "Observatii": "foarte aproape de stația ANM Sf Gheorghe" }, "geometry": { "type": "Point", "coordinates": [ 29.604591271, 44.891504591699999 ] } },
{ "type": "Feature", "properties": { "Name": "Statiunea Orsova", "z": 214.75628662109301, "code_12": 311.0, "descriptio": "Padure", "Contact": "Nistor/Savluescu", "Telefon": null, "Detinator": "UB", "Nume LTSER": "-", "prioritare": "da", "Observatii": null }, "geometry": { "type": "Point", "coordinates": [ 22.39706222, 44.711426967400001 ] } },
{ "type": "Feature", "properties": { "Name": "Agighiol", "z": 71.922958374023395, "code_12": 242.0, "descriptio": "Teren agricol", "Contact": "Marian Tudor/Burada", "Telefon": "0751179153/0743344986", "Detinator": "INCDD Tulcea", "Nume LTSER": "Delta Dunarii", "prioritare": "da", "Observatii": null }, "geometry": { "type": "Point", "coordinates": [ 28.861755303, 45.021863801499997 ] } },
{ "type": "Feature", "properties": { "Name": "Giurgiu", "z": 92.337486267089801, "code_12": 311.0, "descriptio": "Padure", "Contact": "Stefan Leca", "Telefon": "721974158", "Detinator": "ICAS", "Nume LTSER": "Neajlov", "prioritare": "da", "Observatii": null }, "geometry": { "type": "Point", "coordinates": [ 26.063055555599998, 44.075 ] } },
{ "type": "Feature", "properties": { "Name": "Videle", "z": 108.64678192138599, "code_12": 311.0, "descriptio": "Padure", "Contact": "Stefan Leca", "Telefon": "721974158", "Detinator": "ICAS", "Nume LTSER": "Neajlov", "prioritare": "nu", "Observatii": "foarte aproape de stația ANM Videle" }, "geometry": { "type": "Point", "coordinates": [ 25.615833333299999, 44.311944444399998 ] } },
{ "type": "Feature", "properties": { "Name": "Stefanesti", "z": 97.595252990722599, "code_12": 311.0, "descriptio": "Padure", "Contact": "Stefan Leca", "Telefon": "721974158", "Detinator": "ICAS", "Nume LTSER": "-", "prioritare": "da", "Observatii": null }, "geometry": { "type": "Point", "coordinates": [ 26.1775, 44.510833333299999 ] } },
{ "type": "Feature", "properties": { "Name": "Ploiesti", "z": 132.50695800781199, "code_12": 311.0, "descriptio": "Padure", "Contact": "Stefan Leca", "Telefon": "721974158", "Detinator": "ICAS", "Nume LTSER": "-", "prioritare": "nu", "Observatii": "aproape de stația meteo ANM  Ploiești" }, "geometry": { "type": "Point", "coordinates": [ 26.103611111100001, 44.909722222200003 ] } },
{ "type": "Feature", "properties": { "Name": "Campina", "z": 566.904052734375, "code_12": 311.0, "descriptio": "Padure", "Contact": "Stefan Leca", "Telefon": "721974158", "Detinator": "ICAS", "Nume LTSER": "-", "prioritare": "nu", "Observatii": "aproape de stația meteo ANM Câmpina" }, "geometry": { "type": "Point", "coordinates": [ 25.7127777778, 45.1069444444 ] } },
{ "type": "Feature", "properties": { "Name": "Fundata", "z": 1316.13061523437, "code_12": 311.0, "descriptio": "Padure", "Contact": "Stefan Leca", "Telefon": "721974158", "Detinator": "ICAS", "Nume LTSER": "Bucegi", "prioritare": "nu", "Observatii": "foarte aproape de stația meteo ANM Fundata" }, "geometry": { "type": "Point", "coordinates": [ 25.27, 45.4325 ] } },
{ "type": "Feature", "properties": { "Name": "Stana de Vale", "z": 1142.68151855468, "code_12": 313.0, "descriptio": "Padure", "Contact": "Stefan Leca", "Telefon": "721974158", "Detinator": "ICAS", "Nume LTSER": "-", "prioritare": "nu", "Observatii": "foarte aproape de stația meteo ANM S de Vale" }, "geometry": { "type": "Point", "coordinates": [ 22.620833333299998, 46.692777777800003 ] } },
{ "type": "Feature", "properties": { "Name": "Mihailesti", "z": 529.15008544921795, "code_12": 311.0, "descriptio": "Padure", "Contact": "Stefan Leca", "Telefon": "721974158", "Detinator": "ICAS", "Nume LTSER": "-", "prioritare": "da", "Observatii": null }, "geometry": { "type": "Point", "coordinates": [ 24.995833333299998, 45.028333333299997 ] } },
{ "type": "Feature", "properties": { "Name": "Batrana", "z": 1602.48681640625, "code_12": 321.0, "descriptio": "Padure", "Contact": "Stefan Leca", "Telefon": "721974158", "Detinator": "ICAS", "Nume LTSER": "Bucegi", "prioritare": "da", "Observatii": null }, "geometry": { "type": "Point", "coordinates": [ 25.441627168899998, 45.3969789844 ] } },
{ "type": "Feature", "properties": { "Name": "Brusturet", "z": 1045.81860351562, "code_12": 311.0, "descriptio": "Padure", "Contact": "Stefan Leca", "Telefon": "721974158", "Detinator": "ICAS", "Nume LTSER": "Bucegi", "prioritare": "da", "Observatii": null }, "geometry": { "type": "Point", "coordinates": [ 25.2269075305, 45.470860204499999 ] } },
{ "type": "Feature", "properties": { "Name": "Baraganu", "z": 38.827880859375, "code_12": 311.0, "descriptio": "Padure", "Contact": "Stefan Leca", "Telefon": "721974158", "Detinator": "ICAS", "Nume LTSER": "-", "prioritare": "nu", "Observatii": "Aproape de stație ANM (de verificat Perisoru)" }, "geometry": { "type": "Point", "coordinates": [ 27.6002004857, 44.427171464600001 ] } },
{ "type": "Feature", "properties": { "Name": "Cornetu", "z": 78.518959045410099, "code_12": 311.0, "descriptio": "Padure", "Contact": "Stefan Leca", "Telefon": "721974158", "Detinator": "ICAS", "Nume LTSER": "-", "prioritare": "da", "Observatii": null }, "geometry": { "type": "Point", "coordinates": [ 25.969899720099999, 44.332970149 ] } },
{ "type": "Feature", "properties": { "Name": "Retezat Campul lui Neag", "z": 1195.77099609375, "code_12": 312.0, "descriptio": "Padure", "Contact": "Stefan Leca", "Telefon": "721974158", "Detinator": "ICAS", "Nume LTSER": "Retezat", "prioritare": "da", "Observatii": null }, "geometry": { "type": "Point", "coordinates": [ 22.869355, 45.260915 ] } },
{ "type": "Feature", "properties": { "Name": "Retezat  Gemenele", "z": 982.54284667968705, "code_12": 311.0, "descriptio": "Padure", "Contact": "Stefan Leca", "Telefon": "721974158", "Detinator": "ICAS", "Nume LTSER": "Retezat", "prioritare": "da", "Observatii": null }, "geometry": { "type": "Point", "coordinates": [ 22.7909979, 45.3913612 ] } }
]
}
