{
"type": "FeatureCollection",
"name": "ws",
"crs": { "type": "name", "properties": { "name": "urn:ogc:def:crs:OGC:1.3:CRS84" } },
"features": [
{ "type": "Feature", "properties": { "Name": "BR-Mar", "Locality": "Mărașu", "County": "Braila", "Data PIF": "02.08.2023", "Parameters": "air temp, precipitation, air pressure, soil temperature, snow depth,  irradiance, wind speed and direction, visibility, relative humidity" }, "geometry": { "type": "Point", "coordinates": [ 27.982978, 45.231796 ] } },
{ "type": "Feature", "properties": { "Name": "TL-Sar", "Locality": "Sarichioi", "County": "Tulcea", "Data PIF": "03.08.2023", "Parameters": "air temp, precipitation, air pressure, soil temperature, snow depth,  irradiance, wind speed and direction, visibility, relative humidity" }, "geometry": { "type": "Point", "coordinates": [ 28.830232, 44.891246 ] } },
{ "type": "Feature", "properties": { "Name": "BR-Bra", "Locality": "Braila", "County": "Braila", "Data PIF": "04.08.2023", "Parameters": "air temp, precipitation, air pressure, soil temperature, snow depth,  irradiance, wind speed and direction, visibility, relative humidity" }, "geometry": { "type": "Point", "coordinates": [ 27.957608, 45.252871 ] } },
{ "type": "Feature", "properties": { "Name": "TL-Mal", "Locality": "Malcoci", "County": "Tulcea", "Data PIF": "09.08.2023", "Parameters": "air temp, precipitation, air pressure, soil temperature, snow depth,  irradiance, wind speed and direction, visibility, relative humidity" }, "geometry": { "type": "Point", "coordinates": [ 28.856291, 45.102689 ] } },
{ "type": "Feature", "properties": { "Name": "CL-Scm", "Locality": "Stefan Cel Mare", "County": "Calarasi", "Data PIF": "10.08.2023", "Parameters": "air temp, precipitation, air pressure, soil temperature, snow depth,  irradiance, wind speed and direction, visibility, relative humidity" }, "geometry": { "type": "Point", "coordinates": [ 27.59943, 44.427252 ] } },
{ "type": "Feature", "properties": { "Name": "AG-Mih", "Locality": "Mihaesti", "County": "Arges", "Data PIF": "11.08.2023", "Parameters": "air temp, precipitation, air pressure, soil temperature, snow depth,  irradiance, wind speed and direction, visibility, relative humidity" }, "geometry": { "type": "Point", "coordinates": [ 25.012329272284401, 45.103584362600699 ] } },
{ "type": "Feature", "properties": { "Name": "PH-Ber", "Locality": "Berceni", "County": "Prahova", "Data PIF": "16.08.2023", "Parameters": "air temp, precipitation, air pressure, soil temperature, snow depth,  irradiance, wind speed and direction, visibility, relative humidity" }, "geometry": { "type": "Point", "coordinates": [ 26.113957130933301, 44.903617996301897 ] } },
{ "type": "Feature", "properties": { "Name": "IF-Cor", "Locality": "Padurea Cornetu", "County": "Ilfov", "Data PIF": "18.07.2023", "Parameters": "air temp, precipitation, air pressure, soil temperature, snow depth,  irradiance, wind speed and direction, visibility, relative humidity" }, "geometry": { "type": "Point", "coordinates": [ 25.966163857912001, 44.333946338014698 ] } },
{ "type": "Feature", "properties": { "Name": "AG-Dmb", "Locality": "Dambovicioara", "County": "Arges", "Data PIF": "18.08.2023", "Parameters": "air temp, precipitation, air pressure, soil temperature, snow depth,  irradiance, wind speed and direction, visibility, relative humidity" }, "geometry": { "type": "Point", "coordinates": [ 25.1728446254514, 45.495449237824701 ] } },
{ "type": "Feature", "properties": { "Name": "TR-Drv", "Locality": "Draganesti-Vlasca", "County": "Teleorman", "Data PIF": "20.07.2023", "Parameters": "air temp, precipitation, air pressure, soil temperature, snow depth,  irradiance, wind speed and direction, visibility, relative humidity" }, "geometry": { "type": "Point", "coordinates": [ 25.550337274034302, 44.079874901568999 ] } },
{ "type": "Feature", "properties": { "Name": "MH-Ors", "Locality": "Orsova", "County": "Mehedinti", "Data PIF": "24.08.2023", "Parameters": "air temp, precipitation, air pressure, soil temperature, snow depth,  irradiance, wind speed and direction, visibility, relative humidity" }, "geometry": { "type": "Point", "coordinates": [ 22.4050133204817, 44.708624163254001 ] } },
{ "type": "Feature", "properties": { "Name": "DB-Mor", "Locality": "Dambovita", "County": "Moroeni", "Data PIF": "20.09.2023", "Parameters": "air temp, precipitation, air pressure, soil temperature, snow depth,  irradiance, wind speed and direction, visibility, relative humidity" }, "geometry": { "type": "Point", "coordinates": [ 25.427925, 45.285061 ] } },
{ "type": "Feature", "properties": { "Name": "GR-Bul", "Locality": "Giurgiu", "County": "Bulbucata", "Data PIF": "31.08.2023", "Parameters": "air temp, precipitation, air pressure, soil temperature, snow depth,  irradiance, wind speed and direction, visibility, relative humidity" }, "geometry": { "type": "Point", "coordinates": [ 25.834488699581801, 44.293946151774001 ] } },
{ "type": "Feature", "properties": { "Name": "IF-Ste", "Locality": "Ilfov", "County": "Stefanestii de Jos", "Data PIF": "05.09.2023", "Parameters": "air temp, precipitation, air pressure, soil temperature, snow depth,  irradiance, wind speed and direction, visibility, relative humidity" }, "geometry": { "type": "Point", "coordinates": [ 26.187703857831998, 44.502639060962302 ] } }
]
}
