{
"type": "FeatureCollection",
"name": "ws",
"crs": { "type": "name", "properties": { "name": "urn:ogc:def:crs:OGC:1.3:CRS84" } },
"features": [
{ "type": "Feature", "properties": { "Name": "BR-Mar", "locality": "Mărașu", "county": "Braila", "Data PIF": "02.08.2023" }, "geometry": { "type": "Point", "coordinates": [ 27.982978, 45.231796 ] } },
{ "type": "Feature", "properties": { "Name": "TL-Sar", "locality": "Sarichioi", "county": "Tulcea", "Data PIF": "03.08.2023" }, "geometry": { "type": "Point", "coordinates": [ 28.830232, 44.891246 ] } },
{ "type": "Feature", "properties": { "Name": "BR-Bra", "locality": "Braila", "county": "Braila", "Data PIF": "04.08.2023" }, "geometry": { "type": "Point", "coordinates": [ 27.957608, 45.252871 ] } },
{ "type": "Feature", "properties": { "Name": "TL-Mal", "locality": "Malcoci", "county": "Tulcea", "Data PIF": "09.08.2023" }, "geometry": { "type": "Point", "coordinates": [ 28.856291, 45.102689 ] } },
{ "type": "Feature", "properties": { "Name": "CL-Scm", "locality": "Stefan Cel Mare", "county": "Calarasi", "Data PIF": "10.08.2023" }, "geometry": { "type": "Point", "coordinates": [ 27.59943, 44.427252 ] } },
{ "type": "Feature", "properties": { "Name": "AG-Mih", "locality": "Mihaesti", "county": "Arges", "Data PIF": "11.08.2023" }, "geometry": { "type": "Point", "coordinates": [ 25.012329272284401, 45.103584362600699 ] } },
{ "type": "Feature", "properties": { "Name": "PH-Ber", "locality": "Berceni", "county": "Prahova", "Data PIF": "16.08.2023" }, "geometry": { "type": "Point", "coordinates": [ 26.113957130933301, 44.903617996301897 ] } },
{ "type": "Feature", "properties": { "Name": "IF-Cor", "locality": "Padurea Cornetu", "county": "Ilfov", "Data PIF": "18.07.2023" }, "geometry": { "type": "Point", "coordinates": [ 25.966163857912001, 44.333946338014698 ] } },
{ "type": "Feature", "properties": { "Name": "AG-Dmb", "locality": "Dambovicioara", "county": "Arges", "Data PIF": "18.08.2023" }, "geometry": { "type": "Point", "coordinates": [ 25.1728446254514, 45.495449237824701 ] } },
{ "type": "Feature", "properties": { "Name": "TR-Drv", "locality": "Draganesti-Vlasca", "county": "Teleorman", "Data PIF": "20.07.2023" }, "geometry": { "type": "Point", "coordinates": [ 25.550337274034302, 44.079874901568999 ] } },
{ "type": "Feature", "properties": { "Name": "MH-Ors", "locality": "Orsova", "county": "Mehedinti", "Data PIF": "24.08.2023" }, "geometry": { "type": "Point", "coordinates": [ 22.4050133204817, 44.708624163254001 ] } }
]
}
